BIRALES_46469_20231026T1329_20231026T1329_L2.tdm

CCSDS_TDM_VERS = 1.0
COMMENT 46469
CREATION_DATE = 2023-10-26T20:21:12.324712
ORIGINATOR = INAF

META_START
COMMENT 46469
TIME_SYSTEM = UTC
START_TIME = 2023-10-26T13:29:32.042538
STOP_TIME = 2023-10-26T13:29:50.353671
PARTICIPANT_1 = IT_BIRALES-A
PARTICIPANT_2 = 2020-066A
PARTICIPANT_3 = IT_TRF-TX
PATH = 3,2,1
ANGLE_TYPE = AZEL
TRANSMIT_BAND = UHF
RECEIVE_BAND = UHF
TIMETAG_REF = RECEIVE
RANGE_UNITS = km
DATA_QUALITY = VALIDATED
META_STOP

DATA_START

ANGLE_1 = 2023-10-26T13:29:32.042538 1.0087853205445219
ANGLE_2 = 2023-10-26T13:29:32.042538 71.55216734739912
DOPPLER_INSTANTANEOUS = 2023-10-26T13:29:32.042538 -4.975303
RANGE = 2023-10-26T13:29:32.042538 2346.923054968505

ANGLE_1 = 2023-10-26T13:29:32.521887 1.2104445384350437
ANGLE_2 = 2023-10-26T13:29:32.521887 71.65266164078024
DOPPLER_INSTANTANEOUS = 2023-10-26T13:29:32.521887 -4.944801
RANGE = 2023-10-26T13:29:32.521887 2344.545459002357

ANGLE_1 = 2023-10-26T13:29:33.768195 1.744895520944471
ANGLE_2 = 2023-10-26T13:29:33.768195 71.91293144669791
DOPPLER_INSTANTANEOUS = 2023-10-26T13:29:33.768195 -4.860921
RANGE = 2023-10-26T13:29:33.768195 2338.434984115169

ANGLE_1 = 2023-10-26T13:29:34.055804 1.8703498369417992
ANGLE_2 = 2023-10-26T13:29:34.055804 71.9727805897608
DOPPLER_INSTANTANEOUS = 2023-10-26T13:29:34.055804 -4.839737
RANGE = 2023-10-26T13:29:34.055804 2337.0399858418077

ANGLE_1 = 2023-10-26T13:29:34.140000 1.9072286697300864
ANGLE_2 = 2023-10-26T13:29:34.140000 71.99028571852799
DOPPLER_INSTANTANEOUS = 2023-10-26T13:29:34.140000 -4.838251033253364
RANGE = 2023-10-26T13:29:34.140000 2336.632561901584

ANGLE_1 = 2023-10-26T13:29:34.220000 1.942333979330279
ANGLE_2 = 2023-10-26T13:29:34.220000 72.00691197020488
DOPPLER_INSTANTANEOUS = 2023-10-26T13:29:34.220000 -4.832609993470324
RANGE = 2023-10-26T13:29:34.220000 2336.2448250419266

ANGLE_1 = 2023-10-26T13:29:35.740000 2.621448146875506
ANGLE_2 = 2023-10-26T13:29:35.740000 72.32158623032399
DOPPLER_INSTANTANEOUS = 2023-10-26T13:29:35.740000 -4.726961024262022
RANGE = 2023-10-26T13:29:35.740000 2328.961069644715

ANGLE_1 = 2023-10-26T13:29:36.620000 3.0253930728019585
ANGLE_2 = 2023-10-26T13:29:36.620000 72.5026725261464
DOPPLER_INSTANTANEOUS = 2023-10-26T13:29:36.620000 -4.671830560912821
RANGE = 2023-10-26T13:29:36.620000 2324.8164502804643

ANGLE_1 = 2023-10-26T13:29:36.700000 3.0625165301706283
ANGLE_2 = 2023-10-26T13:29:36.700000 72.51909402725911
DOPPLER_INSTANTANEOUS = 2023-10-26T13:29:36.700000 -4.665854037498696
RANGE = 2023-10-26T13:29:36.700000 2324.442295489357

ANGLE_1 = 2023-10-26T13:29:36.780000 3.099707524520383
ANGLE_2 = 2023-10-26T13:29:36.780000 72.5355086328523
DOPPLER_INSTANTANEOUS = 2023-10-26T13:29:36.780000 -4.659490805933096
RANGE = 2023-10-26T13:29:36.780000 2324.068578829494

ANGLE_1 = 2023-10-26T13:29:36.860000 3.1369662121943227
ANGLE_2 = 2023-10-26T13:29:36.860000 72.55191632411216
DOPPLER_INSTANTANEOUS = 2023-10-26T13:29:36.860000 -4.6531273920934595
RANGE = 2023-10-26T13:29:36.860000 2323.6953003008744

ANGLE_1 = 2023-10-26T13:29:37.580000 3.4753665857267504
ANGLE_2 = 2023-10-26T13:29:37.580000 72.69927126600486
DOPPLER_INSTANTANEOUS = 2023-10-26T13:29:37.580000 -4.608670175584759
RANGE = 2023-10-26T13:29:37.580000 2320.3555094492567

ANGLE_1 = 2023-10-26T13:29:37.660000 3.5133108892530354
ANGLE_2 = 2023-10-26T13:29:37.660000 72.7156087657338
DOPPLER_INSTANTANEOUS = 2023-10-26T13:29:37.660000 -4.603216115095018
RANGE = 2023-10-26T13:29:37.660000 2319.9866122330727

ANGLE_1 = 2023-10-26T13:29:37.740000 3.5513246310321156
ANGLE_2 = 2023-10-26T13:29:37.740000 72.73193914013083
DOPPLER_INSTANTANEOUS = 2023-10-26T13:29:37.740000 -4.597762054605276
RANGE = 2023-10-26T13:29:37.740000 2319.618153148132

ANGLE_1 = 2023-10-26T13:29:37.820000 3.589407971992265
ANGLE_2 = 2023-10-26T13:29:37.820000 72.74826236964088
DOPPLER_INSTANTANEOUS = 2023-10-26T13:29:37.820000 -4.592020653718578
RANGE = 2023-10-26T13:29:37.820000 2319.250132194435

ANGLE_1 = 2023-10-26T13:29:37.900000 3.627561073446678
ANGLE_2 = 2023-10-26T13:29:37.900000 72.76457843464564
DOPPLER_INSTANTANEOUS = 2023-10-26T13:29:37.900000 -4.585657126599839
RANGE = 2023-10-26T13:29:37.900000 2318.882549371982

ANGLE_1 = 2023-10-26T13:29:37.980000 3.6657840970938786
ANGLE_2 = 2023-10-26T13:29:37.980000 72.78088731546335
DOPPLER_INSTANTANEOUS = 2023-10-26T13:29:37.980000 -4.579294277295059
RANGE = 2023-10-26T13:29:37.980000 2318.515404680772

ANGLE_1 = 2023-10-26T13:29:38.060000 3.704077205018123
ANGLE_2 = 2023-10-26T13:29:38.060000 72.79718899234875
DOPPLER_INSTANTANEOUS = 2023-10-26T13:29:38.060000 -4.572930721977678
RANGE = 2023-10-26T13:29:38.060000 2318.1486981208054

ANGLE_1 = 2023-10-26T13:29:38.140000 3.7424405596897863
ANGLE_2 = 2023-10-26T13:29:38.140000 72.8134834454927
DOPPLER_INSTANTANEOUS = 2023-10-26T13:29:38.140000 -4.56656770606029
RANGE = 2023-10-26T13:29:38.140000 2317.7824296920826

ANGLE_1 = 2023-10-26T13:29:38.220000 3.780874323965762
ANGLE_2 = 2023-10-26T13:29:38.220000 72.82977065502202
DOPPLER_INSTANTANEOUS = 2023-10-26T13:29:38.220000 -4.560204487180557
RANGE = 2023-10-26T13:29:38.220000 2317.4165993946035

ANGLE_1 = 2023-10-26T13:29:38.300000 3.8193786610898393
ANGLE_2 = 2023-10-26T13:29:38.300000 72.84605060099918
DOPPLER_INSTANTANEOUS = 2023-10-26T13:29:38.300000 -4.55384114018984
RANGE = 2023-10-26T13:29:38.300000 2317.051207228368

ANGLE_1 = 2023-10-26T13:29:38.380000 3.8579537346930817
ANGLE_2 = 2023-10-26T13:29:38.380000 72.86232326342227
DOPPLER_INSTANTANEOUS = 2023-10-26T13:29:38.380000 -4.548278
RANGE = 2023-10-26T13:29:38.380000 2316.6862531933757

ANGLE_1 = 2023-10-26T13:29:39.020000 4.169120600583356
ANGLE_2 = 2023-10-26T13:29:39.020000 72.99223993316618
DOPPLER_INSTANTANEOUS = 2023-10-26T13:29:39.020000 -4.50949907891436
RANGE = 2023-10-26T13:29:39.020000 2313.782393638208

ANGLE_1 = 2023-10-26T13:29:39.100000 4.208339729974752
ANGLE_2 = 2023-10-26T13:29:39.100000 73.00844613276269
DOPPLER_INSTANTANEOUS = 2023-10-26T13:29:39.100000 -4.504726562035992
RANGE = 2023-10-26T13:29:39.100000 2313.421382784408

ANGLE_1 = 2023-10-26T13:29:39.180000 4.247631253534007
ANGLE_2 = 2023-10-26T13:29:39.180000 73.02464484518926
DOPPLER_INSTANTANEOUS = 2023-10-26T13:29:39.180000 -4.499097368832794
RANGE = 2023-10-26T13:29:39.180000 2313.060810061851

ANGLE_1 = 2023-10-26T13:29:39.260000 4.2869953391751086
ANGLE_2 = 2023-10-26T13:29:39.260000 73.04083604971974
DOPPLER_INSTANTANEOUS = 2023-10-26T13:29:39.260000 -4.492734301908835
RANGE = 2023-10-26T13:29:39.260000 2312.7006754705385

ANGLE_1 = 2023-10-26T13:29:39.340000 4.326432155203302
ANGLE_2 = 2023-10-26T13:29:39.340000 73.05701972556078
DOPPLER_INSTANTANEOUS = 2023-10-26T13:29:39.340000 -4.4863707935411865
RANGE = 2023-10-26T13:29:39.340000 2312.340979010469

ANGLE_1 = 2023-10-26T13:29:39.420000 4.365941870315377
ANGLE_2 = 2023-10-26T13:29:39.420000 73.07319585185158
DOPPLER_INSTANTANEOUS = 2023-10-26T13:29:39.420000 -4.480007944236406
RANGE = 2023-10-26T13:29:39.420000 2311.9817206816433

ANGLE_1 = 2023-10-26T13:29:39.500000 4.405524653599941
ANGLE_2 = 2023-10-26T13:29:39.500000 73.0893644076637
DOPPLER_INSTANTANEOUS = 2023-10-26T13:29:39.500000 -4.473645157557109
RANGE = 2023-10-26T13:29:39.500000 2311.622900484061

ANGLE_1 = 2023-10-26T13:29:39.580000 4.44518067453769
ANGLE_2 = 2023-10-26T13:29:39.580000 73.10552537200077
DOPPLER_INSTANTANEOUS = 2023-10-26T13:29:39.580000 -4.467281752769376
RANGE = 2023-10-26T13:29:39.580000 2311.2645184177222

ANGLE_1 = 2023-10-26T13:29:39.660000 4.484910103001679
ANGLE_2 = 2023-10-26T13:29:39.660000 73.12167872379837
DOPPLER_INSTANTANEOUS = 2023-10-26T13:29:39.660000 -4.460918591686659
RANGE = 2023-10-26T13:29:39.660000 2310.9065744826275

ANGLE_1 = 2023-10-26T13:29:39.740000 4.52471310925756
ANGLE_2 = 2023-10-26T13:29:39.740000 73.13782444192368
DOPPLER_INSTANTANEOUS = 2023-10-26T13:29:39.740000 -4.456773
RANGE = 2023-10-26T13:29:39.740000 2310.5490686787757

ANGLE_1 = 2023-10-26T13:29:39.820000 4.564589863963835
ANGLE_2 = 2023-10-26T13:29:39.820000 73.15396250517541
DOPPLER_INSTANTANEOUS = 2023-10-26T13:29:39.820000 -4.455817890611146
RANGE = 2023-10-26T13:29:39.820000 2310.192001006168

ANGLE_1 = 2023-10-26T13:29:40.380000 4.845806521437595
ANGLE_2 = 2023-10-26T13:29:40.380000 73.26671281605005
DOPPLER_INSTANTANEOUS = 2023-10-26T13:29:40.380000 -4.41127538886397
RANGE = 2023-10-26T13:29:40.380000 2307.704794972732

ANGLE_1 = 2023-10-26T13:29:40.460000 4.8862794546696815
ANGLE_2 = 2023-10-26T13:29:40.460000 73.2827888687563
DOPPLER_INSTANTANEOUS = 2023-10-26T13:29:40.460000 -4.41102
RANGE = 2023-10-26T13:29:40.460000 2307.3512323500727

ANGLE_1 = 2023-10-26T13:29:40.540000 4.926827689993343
ANGLE_2 = 2023-10-26T13:29:40.540000 73.2988570726518
DOPPLER_INSTANTANEOUS = 2023-10-26T13:29:40.540000 -4.406174820329612
RANGE = 2023-10-26T13:29:40.540000 2306.9981078586566

ANGLE_1 = 2023-10-26T13:29:40.620000 4.967451402007237
ANGLE_2 = 2023-10-26T13:29:40.620000 73.31491740583645
DOPPLER_INSTANTANEOUS = 2023-10-26T13:29:40.620000 -4.399811567497653
RANGE = 2023-10-26T13:29:40.620000 2306.645421498484

ANGLE_1 = 2023-10-26T13:29:41.180000 5.2539454826988345
ANGLE_2 = 2023-10-26T13:29:41.180000 73.42711750361033
DOPPLER_INSTANTANEOUS = 2023-10-26T13:29:41.180000 -4.3611438811585135
RANGE = 2023-10-26T13:29:41.180000 2304.188884652098

ANGLE_1 = 2023-10-26T13:29:41.260000 5.295179341211735
ANGLE_2 = 2023-10-26T13:29:41.260000 73.44311407411358
DOPPLER_INSTANTANEOUS = 2023-10-26T13:29:41.260000 -4.356531694377804
RANGE = 2023-10-26T13:29:41.260000 2303.839703341874

ANGLE_1 = 2023-10-26T13:29:41.340000 5.336490265592006
ANGLE_2 = 2023-10-26T13:29:41.340000 73.45910257357342
DOPPLER_INSTANTANEOUS = 2023-10-26T13:29:41.340000 -4.350168911442578
RANGE = 2023-10-26T13:29:41.340000 2303.4909601628938

ANGLE_1 = 2023-10-26T13:29:41.420000 5.377878434393321
ANGLE_2 = 2023-10-26T13:29:41.420000 73.47508297936722
DOPPLER_INSTANTANEOUS = 2023-10-26T13:29:41.420000 -4.343805249173351
RANGE = 2023-10-26T13:29:41.420000 2303.142655115157

ANGLE_1 = 2023-10-26T13:29:41.500000 5.419344026565311
ANGLE_2 = 2023-10-26T13:29:41.500000 73.49105526879872
DOPPLER_INSTANTANEOUS = 2023-10-26T13:29:41.500000 -4.337442266037343
RANGE = 2023-10-26T13:29:41.500000 2302.794788198664

ANGLE_1 = 2023-10-26T13:29:41.580000 5.460887221453578
ANGLE_2 = 2023-10-26T13:29:41.580000 73.50701941909779
DOPPLER_INSTANTANEOUS = 2023-10-26T13:29:41.580000 -4.331078999624491
RANGE = 2023-10-26T13:29:41.580000 2302.4473594134142

ANGLE_1 = 2023-10-26T13:29:41.660000 5.502508198799753
ANGLE_2 = 2023-10-26T13:29:41.660000 73.52297540742023
DOPPLER_INSTANTANEOUS = 2023-10-26T13:29:41.660000 -4.324715700166893
RANGE = 2023-10-26T13:29:41.660000 2302.1003687594084

ANGLE_1 = 2023-10-26T13:29:41.740000 5.5442071387415055
ANGLE_2 = 2023-10-26T13:29:41.740000 73.53892321084747
DOPPLER_INSTANTANEOUS = 2023-10-26T13:29:41.740000 -4.31835276482737
RANGE = 2023-10-26T13:29:41.740000 2301.753816236646

ANGLE_1 = 2023-10-26T13:29:41.820000 5.585984221812538
ANGLE_2 = 2023-10-26T13:29:41.820000 73.5548628063865
DOPPLER_INSTANTANEOUS = 2023-10-26T13:29:41.820000 -4.31198914742881
RANGE = 2023-10-26T13:29:41.820000 2301.407701845127

ANGLE_1 = 2023-10-26T13:29:41.900000 5.627839628942603
ANGLE_2 = 2023-10-26T13:29:41.900000 73.57079417096928
DOPPLER_INSTANTANEOUS = 2023-10-26T13:29:41.900000 -4.311889
RANGE = 2023-10-26T13:29:41.900000 2301.0620255848517

ANGLE_1 = 2023-10-26T13:29:41.980000 5.669773541457469
ANGLE_2 = 2023-10-26T13:29:41.980000 73.58671728145288
DOPPLER_INSTANTANEOUS = 2023-10-26T13:29:41.980000 -4.3068884888912065
RANGE = 2023-10-26T13:29:41.980000 2300.71678745582

ANGLE_1 = 2023-10-26T13:29:42.060000 5.711786141078914
ANGLE_2 = 2023-10-26T13:29:42.060000 73.60263211461886
DOPPLER_INSTANTANEOUS = 2023-10-26T13:29:42.060000 -4.300525215687911
RANGE = 2023-10-26T13:29:42.060000 2300.371987458032

ANGLE_1 = 2023-10-26T13:29:42.860000 6.136280189974999
ANGLE_2 = 2023-10-26T13:29:42.860000 73.76132003142374
DOPPLER_INSTANTANEOUS = 2023-10-26T13:29:42.860000 -4.24451889574315
RANGE = 2023-10-26T13:29:42.860000 2296.9480846985457

ANGLE_1 = 2023-10-26T13:29:42.940000 6.179170454600755
ANGLE_2 = 2023-10-26T13:29:42.940000 73.77714225989376
DOPPLER_INSTANTANEOUS = 2023-10-26T13:29:42.940000 -4.238155934598936
RANGE = 2023-10-26T13:29:42.940000 2296.6081041444368

ANGLE_1 = 2023-10-26T13:29:43.020000 6.222141617856876
ANGLE_2 = 2023-10-26T13:29:43.020000 73.7929559264599
DOPPLER_INSTANTANEOUS = 2023-10-26T13:29:43.020000 -4.23179264781475
RANGE = 2023-10-26T13:29:43.020000 2296.268561721571

ANGLE_1 = 2023-10-26T13:29:43.067566 6.247729623614326
ANGLE_2 = 2023-10-26T13:29:43.067566 73.80235426858498
DOPPLER_INSTANTANEOUS = 2023-10-26T13:29:43.067566 -4.228009
RANGE = 2023-10-26T13:29:43.067566 2296.067362258981

ANGLE_1 = 2023-10-26T13:29:43.163436 6.299389911584114
ANGLE_2 = 2023-10-26T13:29:43.163436 73.82128752582828
DOPPLER_INSTANTANEOUS = 2023-10-26T13:29:43.163436 -4.220384
RANGE = 2023-10-26T13:29:43.163436 2295.662388540526

ANGLE_1 = 2023-10-26T13:29:43.259306 6.351167129225642
ANGLE_2 = 2023-10-26T13:29:43.259306 73.84020838986363
DOPPLER_INSTANTANEOUS = 2023-10-26T13:29:43.259306 -4.212759
RANGE = 2023-10-26T13:29:43.259306 2295.2581458308214

ANGLE_1 = 2023-10-26T13:29:43.355175 6.403061058175324
ANGLE_2 = 2023-10-26T13:29:43.355175 73.85911662144937
DOPPLER_INSTANTANEOUS = 2023-10-26T13:29:43.355175 -4.207475
RANGE = 2023-10-26T13:29:43.355175 2294.854526124148

ANGLE_1 = 2023-10-26T13:29:43.451045 6.455073105392583
ANGLE_2 = 2023-10-26T13:29:43.451045 73.87801257280462
DOPPLER_INSTANTANEOUS = 2023-10-26T13:29:43.451045 -4.205133
RANGE = 2023-10-26T13:29:43.451045 2294.451267759668

ANGLE_1 = 2023-10-26T13:29:43.546915 6.507203055361847
ANGLE_2 = 2023-10-26T13:29:43.546915 73.8968960042287
DOPPLER_INSTANTANEOUS = 2023-10-26T13:29:43.546915 -4.197508
RANGE = 2023-10-26T13:29:43.546915 2294.048487163333

ANGLE_1 = 2023-10-26T13:29:43.642785 6.559451234066537
ANGLE_2 = 2023-10-26T13:29:43.642785 73.91576687315019
DOPPLER_INSTANTANEOUS = 2023-10-26T13:29:43.642785 -4.189882
RANGE = 2023-10-26T13:29:43.642785 2293.646437623683

ANGLE_1 = 2023-10-26T13:29:43.738655 6.611817968300018
ANGLE_2 = 2023-10-26T13:29:43.738655 73.93462513683161
DOPPLER_INSTANTANEOUS = 2023-10-26T13:29:43.738655 -4.182257
RANGE = 2023-10-26T13:29:43.738655 2293.245119140718

ANGLE_1 = 2023-10-26T13:29:43.834524 6.664303037577166
ANGLE_2 = 2023-10-26T13:29:43.834524 73.95347055586011
DOPPLER_INSTANTANEOUS = 2023-10-26T13:29:43.834524 -4.174631
RANGE = 2023-10-26T13:29:43.834524 2292.844535892882

ANGLE_1 = 2023-10-26T13:29:44.026264 6.7696322336585695
ANGLE_2 = 2023-10-26T13:29:44.026264 73.99112367031184
DOPPLER_INSTANTANEOUS = 2023-10-26T13:29:44.026264 -4.15938
RANGE = 2023-10-26T13:29:44.026264 2292.045554258312

ANGLE_1 = 2023-10-26T13:29:44.218004 6.875440913676202
ANGLE_2 = 2023-10-26T13:29:44.218004 74.02872567313834
DOPPLER_INSTANTANEOUS = 2023-10-26T13:29:44.218004 -4.151755
RANGE = 2023-10-26T13:29:44.218004 2291.2487657458623

ANGLE_1 = 2023-10-26T13:29:44.313873 6.928525333392994
ANGLE_2 = 2023-10-26T13:29:44.313873 74.04750720279993
DOPPLER_INSTANTANEOUS = 2023-10-26T13:29:44.313873 -4.14413
RANGE = 2023-10-26T13:29:44.313873 2290.8511066463298

ANGLE_1 = 2023-10-26T13:29:44.409743 6.9817311718841495
ANGLE_2 = 2023-10-26T13:29:44.409743 74.06627601932911
DOPPLER_INSTANTANEOUS = 2023-10-26T13:29:44.409743 -4.136504
RANGE = 2023-10-26T13:29:44.409743 2290.4541744555395

ANGLE_1 = 2023-10-26T13:29:44.505613 7.0350582093027265
ANGLE_2 = 2023-10-26T13:29:44.505613 74.08503188266056
DOPPLER_INSTANTANEOUS = 2023-10-26T13:29:44.505613 -4.128879
RANGE = 2023-10-26T13:29:44.505613 2290.0579733214345

ANGLE_1 = 2023-10-26T13:29:44.601483 7.088506779692424
ANGLE_2 = 2023-10-26T13:29:44.601483 74.10377474853242
DOPPLER_INSTANTANEOUS = 2023-10-26T13:29:44.601483 -4.121253
RANGE = 2023-10-26T13:29:44.601483 2289.6625032440147

ANGLE_1 = 2023-10-26T13:29:44.697353 7.142077217897357
ANGLE_2 = 2023-10-26T13:29:44.697353 74.12250457251024
DOPPLER_INSTANTANEOUS = 2023-10-26T13:29:44.697353 -4.113628
RANGE = 2023-10-26T13:29:44.697353 2289.2677642232798

ANGLE_1 = 2023-10-26T13:29:44.793222 7.195769298865583
ANGLE_2 = 2023-10-26T13:29:44.793222 74.14122111482423
DOPPLER_INSTANTANEOUS = 2023-10-26T13:29:44.793222 -4.106002
RANGE = 2023-10-26T13:29:44.793222 2288.8737603690447

ANGLE_1 = 2023-10-26T13:29:45.080832 7.357583809151239
ANGLE_2 = 2023-10-26T13:29:45.080832 74.19729235996377
DOPPLER_INSTANTANEOUS = 2023-10-26T13:29:45.080832 -4.090752
RANGE = 2023-10-26T13:29:45.080832 2287.6950261600746

ANGLE_1 = 2023-10-26T13:29:45.176702 7.411768635730351
ANGLE_2 = 2023-10-26T13:29:45.176702 74.21595630200487
DOPPLER_INSTANTANEOUS = 2023-10-26T13:29:45.176702 -4.083126
RANGE = 2023-10-26T13:29:45.176702 2287.303211318145

ANGLE_1 = 2023-10-26T13:29:45.272572 7.466077355923176
ANGLE_2 = 2023-10-26T13:29:45.272572 74.23460693188362
DOPPLER_INSTANTANEOUS = 2023-10-26T13:29:45.272572 -4.075501
RANGE = 2023-10-26T13:29:45.272572 2286.9121275329

ANGLE_1 = 2023-10-26T13:29:45.368441 7.520509741712081
ANGLE_2 = 2023-10-26T13:29:45.368441 74.25324400960703
DOPPLER_INSTANTANEOUS = 2023-10-26T13:29:45.368441 -4.067875
RANGE = 2023-10-26T13:29:45.368441 2286.521778876028

ANGLE_1 = 2023-10-26T13:29:45.464311 7.575067269851324
ANGLE_2 = 2023-10-26T13:29:45.464311 74.2718678781393
DOPPLER_INSTANTANEOUS = 2023-10-26T13:29:45.464311 -4.06025
RANGE = 2023-10-26T13:29:45.464311 2286.1321572041525

ANGLE_1 = 2023-10-26T13:29:45.560181 7.629749715197928
ANGLE_2 = 2023-10-26T13:29:45.560181 74.29047829699145
DOPPLER_INSTANTANEOUS = 2023-10-26T13:29:45.560181 -4.052624
RANGE = 2023-10-26T13:29:45.560181 2285.743266588963

ANGLE_1 = 2023-10-26T13:29:45.656051 7.684557420525243
ANGLE_2 = 2023-10-26T13:29:45.656051 74.30907521996645
DOPPLER_INSTANTANEOUS = 2023-10-26T13:29:45.656051 -4.044999
RANGE = 2023-10-26T13:29:45.656051 2285.3551070304575

ANGLE_1 = 2023-10-26T13:29:45.751921 7.739490729390922
ANGLE_2 = 2023-10-26T13:29:45.751921 74.32765860068753
DOPPLER_INSTANTANEOUS = 2023-10-26T13:29:45.751921 -4.037373
RANGE = 2023-10-26T13:29:45.751921 2284.967678528638

ANGLE_1 = 2023-10-26T13:29:45.847790 7.794549411165439
ANGLE_2 = 2023-10-26T13:29:45.847790 74.34622819897042
DOPPLER_INSTANTANEOUS = 2023-10-26T13:29:45.847790 -4.037373
RANGE = 2023-10-26T13:29:45.847790 2284.580619616501

ANGLE_1 = 2023-10-26T13:29:45.943660 7.849734959589922
ANGLE_2 = 2023-10-26T13:29:45.943660 74.36478435547221
DOPPLER_INSTANTANEOUS = 2023-10-26T13:29:45.943660 -4.029748
RANGE = 2023-10-26T13:29:45.943660 2284.1939221713656

ANGLE_1 = 2023-10-26T13:29:46.039530 7.905047146909848
ANGLE_2 = 2023-10-26T13:29:46.039530 74.38332682950373
DOPPLER_INSTANTANEOUS = 2023-10-26T13:29:46.039530 -4.022123
RANGE = 2023-10-26T13:29:46.039530 2283.8079557349806

ANGLE_1 = 2023-10-26T13:29:46.135400 7.96048631980171
ANGLE_2 = 2023-10-26T13:29:46.135400 74.40185557396167
DOPPLER_INSTANTANEOUS = 2023-10-26T13:29:46.135400 -4.014497
RANGE = 2023-10-26T13:29:46.135400 2283.4227203552805

ANGLE_1 = 2023-10-26T13:29:46.231270 8.016052825716834
ANGLE_2 = 2023-10-26T13:29:46.231270 74.42037054155962
DOPPLER_INSTANTANEOUS = 2023-10-26T13:29:46.231270 -4.006872
RANGE = 2023-10-26T13:29:46.231270 2283.0382160322656

ANGLE_1 = 2023-10-26T13:29:46.327139 8.07174643127773
ANGLE_2 = 2023-10-26T13:29:46.327139 74.43887149191791
DOPPLER_INSTANTANEOUS = 2023-10-26T13:29:46.327139 -3.999246
RANGE = 2023-10-26T13:29:46.327139 2282.6544467689946

ANGLE_1 = 2023-10-26T13:29:46.423009 8.127568647344999
ANGLE_2 = 2023-10-26T13:29:46.423009 74.45735876334506
DOPPLER_INSTANTANEOUS = 2023-10-26T13:29:46.423009 -3.991621
RANGE = 2023-10-26T13:29:46.423009 2282.27140455935

ANGLE_1 = 2023-10-26T13:29:46.518879 8.183519243413878
ANGLE_2 = 2023-10-26T13:29:46.518879 74.47583211494704
DOPPLER_INSTANTANEOUS = 2023-10-26T13:29:46.518879 -3.983995
RANGE = 2023-10-26T13:29:46.518879 2281.8890934063897

ANGLE_1 = 2023-10-26T13:29:46.614749 8.239598570013738
ANGLE_2 = 2023-10-26T13:29:46.614749 74.49429149869762
DOPPLER_INSTANTANEOUS = 2023-10-26T13:29:46.614749 -3.97637
RANGE = 2023-10-26T13:29:46.614749 2281.5075133101145

ANGLE_1 = 2023-10-26T13:29:46.710619 8.295806978437858
ANGLE_2 = 2023-10-26T13:29:46.710619 74.51273686638397
DOPPLER_INSTANTANEOUS = 2023-10-26T13:29:46.710619 -3.97637
RANGE = 2023-10-26T13:29:46.710619 2281.1262987182145

ANGLE_1 = 2023-10-26T13:29:46.806488 8.352144232416473
ANGLE_2 = 2023-10-26T13:29:46.806488 74.5311679774263
DOPPLER_INSTANTANEOUS = 2023-10-26T13:29:46.806488 -3.968744
RANGE = 2023-10-26T13:29:46.806488 2280.745453651182

ANGLE_1 = 2023-10-26T13:29:46.902358 8.408611860056983
ANGLE_2 = 2023-10-26T13:29:46.902358 74.54958516774313
DOPPLER_INSTANTANEOUS = 2023-10-26T13:29:46.902358 -3.961119
RANGE = 2023-10-26T13:29:46.902358 2280.3653356682767

ANGLE_1 = 2023-10-26T13:29:46.998228 8.465209627957243
ANGLE_2 = 2023-10-26T13:29:46.998228 74.56798819623101
DOPPLER_INSTANTANEOUS = 2023-10-26T13:29:46.998228 -3.953494
RANGE = 2023-10-26T13:29:46.998228 2279.985948694122

ANGLE_1 = 2023-10-26T13:29:47.094098 8.521937890441775
ANGLE_2 = 2023-10-26T13:29:47.094098 74.58637701392381
DOPPLER_INSTANTANEOUS = 2023-10-26T13:29:47.094098 -3.945868
RANGE = 2023-10-26T13:29:47.094098 2279.607292776652

ANGLE_1 = 2023-10-26T13:29:47.189968 8.578797002586503
ANGLE_2 = 2023-10-26T13:29:47.189968 74.60475157166535
DOPPLER_INSTANTANEOUS = 2023-10-26T13:29:47.189968 -3.938243
RANGE = 2023-10-26T13:29:47.189968 2279.2293679158665

ANGLE_1 = 2023-10-26T13:29:47.285837 8.63578672507642
ANGLE_2 = 2023-10-26T13:29:47.285837 74.62311162867152
DOPPLER_INSTANTANEOUS = 2023-10-26T13:29:47.285837 -3.930617
RANGE = 2023-10-26T13:29:47.285837 2278.8521780461965

ANGLE_1 = 2023-10-26T13:29:47.381707 8.692908603387282
ANGLE_2 = 2023-10-26T13:29:47.381707 74.64145751842833
DOPPLER_INSTANTANEOUS = 2023-10-26T13:29:47.381707 -3.922992
RANGE = 2023-10-26T13:29:47.381707 2278.475715298782

ANGLE_1 = 2023-10-26T13:29:47.477577 8.750162401063598
ANGLE_2 = 2023-10-26T13:29:47.477577 74.65978899961873
DOPPLER_INSTANTANEOUS = 2023-10-26T13:29:47.477577 -3.919802
RANGE = 2023-10-26T13:29:47.477577 2278.0997709683916

ANGLE_1 = 2023-10-26T13:29:47.573447 8.807548476159358
ANGLE_2 = 2023-10-26T13:29:47.573447 74.67810602231958
DOPPLER_INSTANTANEOUS = 2023-10-26T13:29:47.573447 -3.907741
RANGE = 2023-10-26T13:29:47.573447 2277.7245576946866

ANGLE_1 = 2023-10-26T13:29:47.669317 8.865067187465812
ANGLE_2 = 2023-10-26T13:29:47.669317 74.69640853641432
DOPPLER_INSTANTANEOUS = 2023-10-26T13:29:47.669317 -3.904771
RANGE = 2023-10-26T13:29:47.669317 2277.3500649319667

ANGLE_1 = 2023-10-26T13:29:47.765186 8.922718292460639
ANGLE_2 = 2023-10-26T13:29:47.765186 74.71469630091048
DOPPLER_INSTANTANEOUS = 2023-10-26T13:29:47.765186 -3.900115
RANGE = 2023-10-26T13:29:47.765186 2276.9759416239995

ANGLE_1 = 2023-10-26T13:29:47.861056 8.980503354103249
ANGLE_2 = 2023-10-26T13:29:47.861056 74.73296964681862
DOPPLER_INSTANTANEOUS = 2023-10-26T13:29:47.861056 -3.89249
RANGE = 2023-10-26T13:29:47.861056 2276.602403103325

ANGLE_1 = 2023-10-26T13:29:47.956926 9.03842213271957
ANGLE_2 = 2023-10-26T13:29:47.956926 74.75122833260387
DOPPLER_INSTANTANEOUS = 2023-10-26T13:29:47.956926 -3.88572
RANGE = 2023-10-26T13:29:47.956926 2276.2295546069745

ANGLE_1 = 2023-10-26T13:29:48.052796 9.096474990018958
ANGLE_2 = 2023-10-26T13:29:48.052796 74.76947230736906
DOPPLER_INSTANTANEOUS = 2023-10-26T13:29:48.052796 -3.877239
RANGE = 2023-10-26T13:29:48.052796 2275.85743716731

ANGLE_1 = 2023-10-26T13:29:48.148666 9.154662288432178
ANGLE_2 = 2023-10-26T13:29:48.148666 74.78770152002004
DOPPLER_INSTANTANEOUS = 2023-10-26T13:29:48.148666 -3.869614
RANGE = 2023-10-26T13:29:48.148666 2275.4860917687547

ANGLE_1 = 2023-10-26T13:29:48.244535 9.212983782058
ANGLE_2 = 2023-10-26T13:29:48.244535 74.80591572935204
DOPPLER_INSTANTANEOUS = 2023-10-26T13:29:48.244535 -3.861988
RANGE = 2023-10-26T13:29:48.244535 2275.1154812926857

ANGLE_1 = 2023-10-26T13:29:48.340405 9.271441051447994
ANGLE_2 = 2023-10-26T13:29:48.340405 74.82411526385684
DOPPLER_INSTANTANEOUS = 2023-10-26T13:29:48.340405 -3.854363
RANGE = 2023-10-26T13:29:48.340405 2274.7455980075006

ANGLE_1 = 2023-10-26T13:29:48.436275 9.330033853534532
ANGLE_2 = 2023-10-26T13:29:48.436275 74.84229988177762
DOPPLER_INSTANTANEOUS = 2023-10-26T13:29:48.436275 -3.846737
RANGE = 2023-10-26T13:29:48.436275 2274.3764457790007

ANGLE_1 = 2023-10-26T13:29:48.532145 9.388762553599358
ANGLE_2 = 2023-10-26T13:29:48.532145 74.860469531226
DOPPLER_INSTANTANEOUS = 2023-10-26T13:29:48.532145 -3.839112
RANGE = 2023-10-26T13:29:48.532145 2274.0080246071857

ANGLE_1 = 2023-10-26T13:29:48.723884 9.506628496158562
ANGLE_2 = 2023-10-26T13:29:48.723884 74.89676352701836
DOPPLER_INSTANTANEOUS = 2023-10-26T13:29:48.723884 -3.831487
RANGE = 2023-10-26T13:29:48.723884 2273.272648116355

ANGLE_1 = 2023-10-26T13:29:48.819754 9.565767087436143
ANGLE_2 = 2023-10-26T13:29:48.819754 74.91488795787039
DOPPLER_INSTANTANEOUS = 2023-10-26T13:29:48.819754 -3.823861
RANGE = 2023-10-26T13:29:48.819754 2272.905689009975

ANGLE_1 = 2023-10-26T13:29:48.915624 9.62504304481426
ANGLE_2 = 2023-10-26T13:29:48.915624 74.9329972106868
DOPPLER_INSTANTANEOUS = 2023-10-26T13:29:48.915624 -3.816236
RANGE = 2023-10-26T13:29:48.915624 2272.53946096028

ANGLE_1 = 2023-10-26T13:29:49.011494 9.684456737054742
ANGLE_2 = 2023-10-26T13:29:49.011494 74.95109123257083
DOPPLER_INSTANTANEOUS = 2023-10-26T13:29:49.011494 -3.80861
RANGE = 2023-10-26T13:29:49.011494 2272.17396396727

ANGLE_1 = 2023-10-26T13:29:49.107364 9.744008533603486
ANGLE_2 = 2023-10-26T13:29:49.107364 74.96916997042182
DOPPLER_INSTANTANEOUS = 2023-10-26T13:29:49.107364 -3.800985
RANGE = 2023-10-26T13:29:49.107364 2271.809198030945

ANGLE_1 = 2023-10-26T13:29:49.203234 9.803698804586285
ANGLE_2 = 2023-10-26T13:29:49.203234 74.98723337093475
DOPPLER_INSTANTANEOUS = 2023-10-26T13:29:49.203234 -3.793359
RANGE = 2023-10-26T13:29:49.203234 2271.445163151305

ANGLE_1 = 2023-10-26T13:29:49.299103 9.863527296014118
ANGLE_2 = 2023-10-26T13:29:49.299103 75.00528119242483
DOPPLER_INSTANTANEOUS = 2023-10-26T13:29:49.299103 -3.785734
RANGE = 2023-10-26T13:29:49.299103 2271.081863117897

ANGLE_1 = 2023-10-26T13:29:49.394973 9.92349562748659
ANGLE_2 = 2023-10-26T13:29:49.394973 75.02331375768667
DOPPLER_INSTANTANEOUS = 2023-10-26T13:29:49.394973 -3.778108
RANGE = 2023-10-26T13:29:49.394973 2270.7192903516266

ANGLE_1 = 2023-10-26T13:29:49.490843 9.983603547803073
ANGLE_2 = 2023-10-26T13:29:49.490843 75.0413308244623
DOPPLER_INSTANTANEOUS = 2023-10-26T13:29:49.490843 -3.770483
RANGE = 2023-10-26T13:29:49.490843 2270.3574486420416

ANGLE_1 = 2023-10-26T13:29:49.586713 10.043851429765574
ANGLE_2 = 2023-10-26T13:29:49.586713 75.05933233862226
DOPPLER_INSTANTANEOUS = 2023-10-26T13:29:49.586713 -3.770483
RANGE = 2023-10-26T13:29:49.586713 2269.995972436832

ANGLE_1 = 2023-10-26T13:29:49.682583 10.104239646833914
ANGLE_2 = 2023-10-26T13:29:49.682583 75.07731824582872
DOPPLER_INSTANTANEOUS = 2023-10-26T13:29:49.682583 -3.762858
RANGE = 2023-10-26T13:29:49.682583 2269.6348617359968

ANGLE_1 = 2023-10-26T13:29:49.778452 10.16476794102123
ANGLE_2 = 2023-10-26T13:29:49.778452 75.09528830417368
DOPPLER_INSTANTANEOUS = 2023-10-26T13:29:49.778452 -3.755232
RANGE = 2023-10-26T13:29:49.778452 2269.274485850892

ANGLE_1 = 2023-10-26T13:29:49.874322 10.225437949814747
ANGLE_2 = 2023-10-26T13:29:49.874322 75.11324283379007
DOPPLER_INSTANTANEOUS = 2023-10-26T13:29:49.874322 -3.747607
RANGE = 2023-10-26T13:29:49.874322 2268.9148372634268

ANGLE_1 = 2023-10-26T13:29:49.970192 10.286249417989099
ANGLE_2 = 2023-10-26T13:29:49.970192 75.13118159218685
DOPPLER_INSTANTANEOUS = 2023-10-26T13:29:49.970192 -3.739981
RANGE = 2023-10-26T13:29:49.970192 2268.5559197326465

ANGLE_1 = 2023-10-26T13:29:50.066062 10.347202721587553
ANGLE_2 = 2023-10-26T13:29:50.066062 75.14910452418809
DOPPLER_INSTANTANEOUS = 2023-10-26T13:29:50.066062 -3.732356
RANGE = 2023-10-26T13:29:50.066062 2268.1977332585516

ANGLE_1 = 2023-10-26T13:29:50.161932 10.408298237286903
ANGLE_2 = 2023-10-26T13:29:50.161932 75.16701157440653
DOPPLER_INSTANTANEOUS = 2023-10-26T13:29:50.161932 -3.72473
RANGE = 2023-10-26T13:29:50.161932 2267.840277841142

ANGLE_1 = 2023-10-26T13:29:50.257801 10.469535702885393
ANGLE_2 = 2023-10-26T13:29:50.257801 75.18490250070774
DOPPLER_INSTANTANEOUS = 2023-10-26T13:29:50.257801 -3.717105
RANGE = 2023-10-26T13:29:50.257801 2267.483557201334

ANGLE_1 = 2023-10-26T13:29:50.353671 10.530916773831875
ANGLE_2 = 2023-10-26T13:29:50.353671 75.20277762051728
DOPPLER_INSTANTANEOUS = 2023-10-26T13:29:50.353671 -3.709479
RANGE = 2023-10-26T13:29:50.353671 2267.1275638972943

DATA_STOP

